{
  "pharmacies": [
    {
      "id": 9554,
      "name": "PHARMACIE CANTONALE",
      "address": "20 RUE DE LA GARE",
      "postalCode": "67370",
      "city": "TRUCHTERSHEIM",
      "department": "BAS-RHIN",
      "coordinates": {
        "latitude": 48.66029600,
        "longitude": 7.60564300
      },
      "distanceKm": 0
    },
    {
      "id": 18630,
      "name": "PHARMACIE LES QUATRE BANS",
      "address": "38 PRINCIPALE",
      "postalCode": "67170",
      "city": "WINGERSHEIM LES QUATRE BANS",
      "department": "BAS-RHIN",
      "coordinates": {
        "latitude": 48.71004900,
        "longitude": 7.63088900
      },
      "distanceKm": 6.21
    },
    {
      "id": 3548,
      "name": "PHARMACIE SCHMUTZ",
      "address": "27 ROUTE DE PARIS",
      "postalCode": "67117",
      "city": "ITTENHEIM",
      "department": "BAS-RHIN",
      "coordinates": {
        "latitude": 48.60267300,
        "longitude": 7.59279700
      },
      "distanceKm": 6.57
    },
    {
      "id": 2313,
      "name": "PHARMACIE SCHEFTEL",
      "address": "ANGLE R DE MITTELHAUSBERGEN & R DU MODULOR",
      "postalCode": "67370",
      "city": "DINGSHEIM",
      "department": "BAS-RHIN",
      "coordinates": {
        "latitude": 48.62817900,
        "longitude": 7.67292800
      },
      "distanceKm": 8.30
    },
    {
      "id": 12350,
      "name": "PHARMACIE JALLU",
      "address": "3 RUE BOURGEND",
      "postalCode": "67204",
      "city": "ACHENHEIM",
      "department": "BAS-RHIN",
      "coordinates": {
        "latitude": 48.57812300,
        "longitude": 7.62665000
      },
      "distanceKm": 9.44
    },
    {
      "id": 11297,
      "name": "PHARMACIE ADREY",
      "address": "10 RUE PRINCIPALE",
      "postalCode": "67370",
      "city": "WILLGOTTHEIM",
      "department": "BAS-RHIN",
      "coordinates": {
        "latitude": 48.66842900,
        "longitude": 7.51448900
      },
      "distanceKm": 10.19
    },
    {
      "id": 14134,
      "name": "PHARMACIE PFISTER ANTOINE",
      "address": "43 RUE DU GENERAL LECLERC",
      "postalCode": "67270",
      "city": "SCHWINDRATZHEIM",
      "department": "BAS-RHIN",
      "coordinates": {
        "latitude": 48.75397200,
        "longitude": 7.59906900
      },
      "distanceKm": 10.45
    },
    {
      "id": 7588,
      "name": "PHARMACIE GEISSERT",
      "address": "8 A RUE DU GAL DE GAULLE",
      "postalCode": "67205",
      "city": "OBERHAUSBERGEN",
      "department": "BAS-RHIN",
      "coordinates": {
        "latitude": 48.60865200,
        "longitude": 7.68450400
      },
      "distanceKm": 10.49
    },
    {
      "id": 460,
      "name": "PHARMACIE ITALIANO",
      "address": "54 RUE DU GAL LECLERC",
      "postalCode": "67200",
      "city": "WOLFISHEIM",
      "department": "BAS-RHIN",
      "coordinates": {
        "latitude": 48.58703400,
        "longitude": 7.66630300
      },
      "distanceKm": 10.59
    },
    {
      "id": 5636,
      "name": "PHARMACIE DE LAMPERTHEIM",
      "address": "18 RUE PRINCIPALE",
      "postalCode": "67450",
      "city": "LAMPERTHEIM",
      "department": "BAS-RHIN",
      "coordinates": {
        "latitude": 48.65200000,
        "longitude": 7.70200000
      },
      "distanceKm": 10.77
    }
  ]
} 